[{"name":"GENWI","founded_year":2010,"description":"","address1":"4966 El Camino Real","address2":"Suite 200","zip_code":"94022","city":"Los Altos","state_code":"CA","country_code":"USA","latitude":33.8171,"longitude":-111.9035,"Address":"4966 El Camino Real, 94022, Los Altos, USA"},{"name":"Fixya","founded_year":2013,"description":"","address1":"One Franklin Parkway","address2":"Building 910, Suite 110","zip_code":"94401","city":"San Mateo","state_code":"CA","country_code":"USA","latitude":37.566879,"longitude":-122.323895,"Address":"One Franklin Parkway, 94401, San Mateo, USA"},{"name":"Widgetbox","founded_year":2012,"description":null,"address1":null,"address2":null,"zip_code":"94111","city":"San Francisco","state_code":"CA","country_code":"USA","latitude":37.798853,"longitude":-122.398599,"Address":null},{"name":"RazorGator","founded_year":2011,"description":null,"address1":"11150 Santa Monica Blvd. Suite 500","address2":null,"zip_code":"90025","city":"Los Angeles","state_code":"CA","country_code":"USA","latitude":34.047312,"longitude":-118.445243,"Address":"11150 Santa Monica Blvd. Suite 500, 90025, Los Angeles, USA"},{"name":"Social Gaming Network","founded_year":2011,"description":"HQ Los Angeles","address1":"9570 W. Pico Blvd 3rd Floor","address2":"","zip_code":"90035","city":"Los Angeles","state_code":"CA","country_code":"USA","latitude":37.446823,"longitude":-122.161523,"Address":"9570 W. Pico Blvd 3rd Floor, 90035, Los Angeles, USA"},{"name":"Social Gaming Network","founded_year":2011,"description":"","address1":"9606 S. Santa Monica Blvd","address2":"2nd Floor","zip_code":"90210","city":"Beverly Hills","state_code":"CA","country_code":"USA","latitude":34.0698494,"longitude":-118.4054182,"Address":"9606 S. Santa Monica Blvd, 90210, Beverly Hills, USA"},{"name":"Skydeck","founded_year":2012,"description":"","address1":"330 Waverley St.","address2":"Suite 3","zip_code":"94301","city":"Palo Alto","state_code":"CA","country_code":"USA","latitude":37.5645375,"longitude":-122.3254705,"Address":"330 Waverley St., 94301, Palo Alto, USA"},{"name":"Magento","founded_year":2010,"description":null,"address1":"","address2":"","zip_code":"","city":"Los Angeles","state_code":"CA","country_code":"USA","latitude":34.052187,"longitude":-118.243425,"Address":", , Los Angeles, USA"},{"name":"Pixsta","founded_year":2010,"description":null,"address1":"9 Thorpe Close","address2":"Portobello Rd","zip_code":"W10 5XL","city":"London","state_code":null,"country_code":"GBR","latitude":51.51819,"longitude":-0.208979,"Address":"9 Thorpe Close, W10 5XL, London, GBR"},{"name":"FirstString","founded_year":2011,"description":null,"address1":"","address2":"","zip_code":"","city":"Los Angeles","state_code":"CA","country_code":"USA","latitude":34.052187,"longitude":-118.243425,"Address":", , Los Angeles, USA"},{"name":"Titan Gaming","founded_year":2010,"description":"Santa Monica Office","address1":"1351 4th Street, 4th floor","address2":"","zip_code":"90401","city":"Santa Monica","state_code":"CA","country_code":"USA","latitude":53.544711,"longitude":-113.515769,"Address":"1351 4th Street, 4th floor, 90401, Santa Monica, USA"},{"name":"Integrate","founded_year":2010,"description":"Scottsdale HQ","address1":"4900 N. Scottsdale Road","address2":"Suite 4000","zip_code":"85251","city":"Scottsdale","state_code":"AZ","country_code":"USA","latitude":40.7481039,"longitude":-74.0353787,"Address":"4900 N. Scottsdale Road, 85251, Scottsdale, USA"},{"name":"Integrate","founded_year":2010,"description":"Colorado Office","address1":"1821 Blake St.","address2":"STe 2A","zip_code":"80202","city":"Denver","state_code":"CO","country_code":"USA","latitude":39.752908,"longitude":-104.9965953,"Address":"1821 Blake St., 80202, Denver, USA"},{"name":"Integrate","founded_year":2010,"description":"San Francisco Office","address1":"23 Geary St","address2":"10th Floor","zip_code":"94104","city":"San Francisco","state_code":"CA","country_code":"USA","latitude":37.7877542,"longitude":-122.4040147,"Address":"23 Geary St, 94104, San Francisco, USA"},{"name":"Integrate","founded_year":2010,"description":"Boston Office","address1":"239 South Street","address2":"4th Floor","zip_code":"01748","city":"Hopkinton","state_code":"MA","country_code":"USA","latitude":42.1900278,"longitude":-71.5382234,"Address":"239 South Street, 01748, Hopkinton, USA"},{"name":"vufind","founded_year":2010,"description":"Headquarters","address1":"1290 oakmead parkway, suite 107","address2":"","zip_code":"94085","city":"Sunnyvale","state_code":"CA","country_code":"USA","latitude":37.424614,"longitude":-122.145153,"Address":"1290 oakmead parkway, suite 107, 94085, Sunnyvale, USA"},{"name":"travelmob","founded_year":2011,"description":"HQ","address1":"71 Ayer Rajah Crescent","address2":"06-20","zip_code":"139951","city":"Singapore","state_code":null,"country_code":"SGP","latitude":21.303049,"longitude":-157.78907,"Address":"71 Ayer Rajah Crescent, 139951, Singapore, SGP"},{"name":"UsingMiles","founded_year":2010,"description":"Headquarters","address1":"1514 Blake St","address2":"","zip_code":"80202","city":"Denver","state_code":"CO","country_code":"USA","latitude":39.749671,"longitude":-104.9998449,"Address":"1514 Blake St, 80202, Denver, USA"},{"name":"Kidos","founded_year":2011,"description":"Mailing Address","address1":"355 E. 72nd St., Suite 4E","address2":"","zip_code":"10021","city":"New York","state_code":"NY","country_code":"USA","latitude":40.768058,"longitude":-73.956599,"Address":"355 E. 72nd St., Suite 4E, 10021, New York, USA"},{"name":"Kidos","founded_year":2011,"description":"Corporate Headquarters","address1":"153 Roebling St.","address2":"","zip_code":"11211","city":"Brooklyn","state_code":"NY","country_code":"USA","latitude":40.714056,"longitude":-73.957854,"Address":"153 Roebling St., 11211, Brooklyn, USA"},{"name":"Yipit","founded_year":2010,"description":"HQ","address1":"3 W 18th","address2":"2nd Floor","zip_code":"10011","city":"New York","state_code":"NY","country_code":"USA","latitude":40.744618,"longitude":-73.987764,"Address":"3 W 18th, 10011, New York, USA"},{"name":"Queralt","founded_year":2011,"description":"","address1":"250 State Street","address2":"Suite G1","zip_code":"06473","city":"North Haven","state_code":"CT","country_code":"USA","latitude":41.4778641,"longitude":-72.8190106,"Address":"250 State Street, 06473, North Haven, USA"},{"name":"FeedHenry","founded_year":2010,"description":"US Offices","address1":"15 New England Executive Park","address2":"","zip_code":"01803","city":"Burlington","state_code":"MA","country_code":"USA","latitude":42.4851017,"longitude":-71.2089211,"Address":"15 New England Executive Park, 01803, Burlington, USA"},{"name":"Tengaged","founded_year":2010,"description":"Main","address1":"C\/Pedrell","address2":"","zip_code":"08032","city":"Barcelona","state_code":null,"country_code":"ESP","latitude":41.4241228,"longitude":2.1634249,"Address":"C\/Pedrell, 08032, Barcelona, ESP"},{"name":"VisualOn","founded_year":2011,"description":"Headquarters","address1":"4675 Stevens Creek Blvd","address2":"# 200","zip_code":"95051","city":"Santa Clara","state_code":"CA","country_code":"USA","latitude":37.270518,"longitude":-121.955879,"Address":"4675 Stevens Creek Blvd, 95051, Santa Clara, USA"},{"name":"BASH Gaming","founded_year":2010,"description":"US Office","address1":"","address2":"","zip_code":"94555","city":"Fremont","state_code":"CA","country_code":"USA","latitude":37.5561712,"longitude":-122.0780632,"Address":", 94555, Fremont, USA"},{"name":"BASH Gaming","founded_year":2010,"description":"India Office","address1":"","address2":"","zip_code":"","city":"Bangalore","state_code":null,"country_code":"IND","latitude":12.971606,"longitude":77.594376,"Address":", , Bangalore, IND"},{"name":"AppNeta","founded_year":2010,"description":"AppNeta","address1":"285 Summer Street","address2":"4th Floor","zip_code":"02127","city":"SOUTH BOSTON","state_code":"MA","country_code":"USA","latitude":42.318138,"longitude":-71.24756,"Address":"285 Summer Street, 02127, SOUTH BOSTON, USA"},{"name":"MyLikes","founded_year":2010,"description":"","address1":"1000 Brannan St, #502","address2":"","zip_code":"94103","city":"San Francisco","state_code":"CA","country_code":"USA","latitude":37.777995,"longitude":-122.408914,"Address":"1000 Brannan St, #502, 94103, San Francisco, USA"},{"name":"Fliptop","founded_year":2010,"description":"Headquarters","address1":"580 Howard Street","address2":"Suite 201","zip_code":"94105","city":"San Francisco","state_code":"CA","country_code":"USA","latitude":37.775206,"longitude":-122.419209,"Address":"580 Howard Street, 94105, San Francisco, USA"},{"name":"Chicisimo","founded_year":2010,"description":"Office","address1":"Calle Henao 14","address2":"n\u00ba 4, 4\u00baD","zip_code":"","city":"Bilbao","state_code":null,"country_code":"ESP","latitude":43.264499,"longitude":-2.9308322,"Address":"Calle Henao 14, , Bilbao, ESP"},{"name":"VistaGen Therapeutics","founded_year":2013,"description":"","address1":"384 Oyster Point Blvd., Suite #8","address2":"","zip_code":"94080","city":"South San Francisco","state_code":"CA","country_code":"USA","latitude":37.6656476,"longitude":-122.3843489,"Address":"384 Oyster Point Blvd., Suite #8, 94080, South San Francisco, USA"},{"name":"ticketea","founded_year":2010,"description":"Office","address1":"Marques de Lema","address2":"7","zip_code":"28003","city":"Madrid","state_code":null,"country_code":"ESP","latitude":40.4455155,"longitude":-3.7061764,"Address":"Marques de Lema, 28003, Madrid, ESP"}]