[{"name":"FirstString","founded_year":2011,"offices":[{"description":null,"address1":"","address2":"","zip_code":"","city":"Los Angeles","state_code":"CA","country_code":"USA","latitude":34.052187,"longitude":-118.243425}]},{"name":"VisualOn","founded_year":2011,"offices":[{"description":"Headquarters","address1":"4675 Stevens Creek Blvd","address2":"# 200","zip_code":"95051","city":"Santa Clara","state_code":"CA","country_code":"USA","latitude":37.270518,"longitude":-121.955879}]},{"name":"RazorGator","founded_year":2011,"offices":[{"description":null,"address1":"11150 Santa Monica Blvd. Suite 500","address2":null,"zip_code":"90025","city":"Los Angeles","state_code":"CA","country_code":"USA","latitude":34.047312,"longitude":-118.445243}]},{"name":"Queralt","founded_year":2011,"offices":[{"description":"","address1":"250 State Street","address2":"Suite G1","zip_code":"06473","city":"North Haven","state_code":"CT","country_code":"USA","latitude":41.4778641,"longitude":-72.8190106}]},{"name":"Social Gaming Network","founded_year":2011,"offices":[{"description":"HQ Los Angeles","address1":"9570 W. Pico Blvd 3rd Floor","address2":"","zip_code":"90035","city":"Los Angeles","state_code":"CA","country_code":"USA","latitude":37.446823,"longitude":-122.161523},{"description":"","address1":"9606 S. Santa Monica Blvd","address2":"2nd Floor","zip_code":"90210","city":"Beverly Hills","state_code":"CA","country_code":"USA","latitude":34.0698494,"longitude":-118.4054182}]},{"name":"Moblica","founded_year":2011,"offices":[{"description":"HQ","address1":"88 Menachem Begin Street","address2":"","zip_code":"67138","city":"Tel Aviv","state_code":null,"country_code":"ISR","latitude":32.0554,"longitude":34.7595}]},{"name":"Kidos","founded_year":2011,"offices":[{"description":"Mailing Address","address1":"355 E. 72nd St., Suite 4E","address2":"","zip_code":"10021","city":"New York","state_code":"NY","country_code":"USA","latitude":40.768058,"longitude":-73.956599},{"description":"Corporate Headquarters","address1":"153 Roebling St.","address2":"","zip_code":"11211","city":"Brooklyn","state_code":"NY","country_code":"USA","latitude":40.714056,"longitude":-73.957854}]},{"name":"travelmob","founded_year":2011,"offices":[{"description":"HQ","address1":"71 Ayer Rajah Crescent","address2":"06-20","zip_code":"139951","city":"Singapore","state_code":null,"country_code":"SGP","latitude":21.303049,"longitude":-157.78907}]},{"name":"Kidos","founded_year":2011,"offices":[{"description":"Mailing Address","address1":"355 E. 72nd St., Suite 4E","address2":"","zip_code":"10021","city":"New York","state_code":"NY","country_code":"USA","latitude":40.768058,"longitude":-73.956599},{"description":"Corporate Headquarters","address1":"153 Roebling St.","address2":"","zip_code":"11211","city":"Brooklyn","state_code":"NY","country_code":"USA","latitude":40.714056,"longitude":-73.957854}]},{"name":"travelmob","founded_year":2011,"offices":[{"description":"HQ","address1":"71 Ayer Rajah Crescent","address2":"06-20","zip_code":"139951","city":"Singapore","state_code":null,"country_code":"SGP","latitude":21.303049,"longitude":-157.78907}]},{"name":"Widgetbox","founded_year":2012,"offices":[{"description":null,"address1":null,"address2":null,"zip_code":"94111","city":"San Francisco","state_code":"CA","country_code":"USA","latitude":37.798853,"longitude":-122.398599}]},{"name":"Skydeck","founded_year":2012,"offices":[{"description":"","address1":"330 Waverley St.","address2":"Suite 3","zip_code":"94301","city":"Palo Alto","state_code":"CA","country_code":"USA","latitude":37.5645375,"longitude":-122.3254705}]},{"name":"Fixya","founded_year":2013,"offices":[{"description":"","address1":"One Franklin Parkway","address2":"Building 910, Suite 110","zip_code":"94401","city":"San Mateo","state_code":"CA","country_code":"USA","latitude":37.566879,"longitude":-122.323895}]},{"name":"Advaliant","founded_year":2013,"offices":[{"description":"Toronto Office","address1":"579 Richmond St. W, Suite 100","address2":"","zip_code":"M5V 1Y6","city":"Toronto","state_code":null,"country_code":"CAN","latitude":43.646599,"longitude":-79.403014},{"description":"Headquarters","address1":"404 Park Ave South","address2":"2nd floor","zip_code":"10016","city":"New York","state_code":"NY","country_code":"USA","latitude":40.743662,"longitude":-73.984268},{"description":"New York Headquarters","address1":"404 Park Ave South","address2":"2nd floor","zip_code":"10016","city":"New York","state_code":"NY","country_code":"USA","latitude":40.743662,"longitude":-73.984268}]},{"name":"Wamba","founded_year":2013,"offices":[]},{"name":"Tongxue","founded_year":2013,"offices":[]},{"name":"VistaGen Therapeutics","founded_year":2013,"offices":[{"description":"","address1":"384 Oyster Point Blvd., Suite #8","address2":"","zip_code":"94080","city":"South San Francisco","state_code":"CA","country_code":"USA","latitude":37.6656476,"longitude":-122.3843489}]}]